{
"type": "FeatureCollection",
"name": "cma-points",
"crs": { "type": "name", "properties": { "name": "urn:ogc:def:crs:OGC:1.3:CRS84" } },
"features": [
{ "type": "Feature", "properties": { "cmauid": "001", "cmaname": "St. John's" }, "geometry": { "type": "Point", "coordinates": [ -52.858721936690927, 47.499450001911953 ] } },
{ "type": "Feature", "properties": { "cmauid": "205", "cmaname": "Halifax" }, "geometry": { "type": "Point", "coordinates": [ -63.279166572109254, 44.921472837918529 ] } },
{ "type": "Feature", "properties": { "cmauid": "305", "cmaname": "Moncton" }, "geometry": { "type": "Point", "coordinates": [ -64.858101574639889, 46.014796517179043 ] } },
{ "type": "Feature", "properties": { "cmauid": "310", "cmaname": "Saint John" }, "geometry": { "type": "Point", "coordinates": [ -66.01029509574289, 45.403949339561791 ] } },
{ "type": "Feature", "properties": { "cmauid": "320", "cmaname": "Fredericton" }, "geometry": { "type": "Point", "coordinates": [ -66.779434090986328, 46.014751420786155 ] } },
{ "type": "Feature", "properties": { "cmauid": "408", "cmaname": "Saguenay" }, "geometry": { "type": "Point", "coordinates": [ -71.008268234561655, 48.419452740527944 ] } },
{ "type": "Feature", "properties": { "cmauid": "421", "cmaname": "Quebec City" }, "geometry": { "type": "Point", "coordinates": [ -71.341899925408313, 46.91263204041676 ] } },
{ "type": "Feature", "properties": { "cmauid": "433", "cmaname": "Sherbrooke" }, "geometry": { "type": "Point", "coordinates": [ -71.945294381925038, 45.389977083301503 ] } },
{ "type": "Feature", "properties": { "cmauid": "442", "cmaname": "Trois Rivieres" }, "geometry": { "type": "Point", "coordinates": [ -72.502260373746068, 46.360246160753448 ] } },
{ "type": "Feature", "properties": { "cmauid": "447", "cmaname": "Drummondville" }, "geometry": { "type": "Point", "coordinates": [ -72.461772738768317, 45.866937761674066 ] } },
{ "type": "Feature", "properties": { "cmauid": "462", "cmaname": "Montreal" }, "geometry": { "type": "Point", "coordinates": [ -73.704744389847477, 45.577143105046311 ] } },
{ "type": "Feature", "properties": { "cmauid": "505", "cmaname": "Ottawa-Gatineau" }, "geometry": { "type": "Point", "coordinates": [ -75.737454723670353, 45.682878563033981 ] } },
{ "type": "Feature", "properties": { "cmauid": "521", "cmaname": "Kingston" }, "geometry": { "type": "Point", "coordinates": [ -76.539363634949751, 44.394864906436766 ] } },
{ "type": "Feature", "properties": { "cmauid": "522", "cmaname": "Belleville" }, "geometry": { "type": "Point", "coordinates": [ -77.455533370434324, 44.259568615871409 ] } },
{ "type": "Feature", "properties": { "cmauid": "529", "cmaname": "Peterborough" }, "geometry": { "type": "Point", "coordinates": [ -78.26614544054901, 44.343501175063352 ] } },
{ "type": "Feature", "properties": { "cmauid": "532", "cmaname": "Oshawa" }, "geometry": { "type": "Point", "coordinates": [ -78.741599827067063, 43.966816895128964 ] } },
{ "type": "Feature", "properties": { "cmauid": "535", "cmaname": "Toronto" }, "geometry": { "type": "Point", "coordinates": [ -79.580129534490624, 43.904709108719736 ] } },
{ "type": "Feature", "properties": { "cmauid": "537", "cmaname": "Hamilton" }, "geometry": { "type": "Point", "coordinates": [ -79.925849893520706, 43.266089732793752 ] } },
{ "type": "Feature", "properties": { "cmauid": "539", "cmaname": "St. Catharines-Niagara" }, "geometry": { "type": "Point", "coordinates": [ -79.232703161861096, 43.035689561573967 ] } },
{ "type": "Feature", "properties": { "cmauid": "541", "cmaname": "Kitchener-Waterloo-Cambridge" }, "geometry": { "type": "Point", "coordinates": [ -80.490860674040178, 43.441915335720701 ] } },
{ "type": "Feature", "properties": { "cmauid": "543", "cmaname": "Brantford" }, "geometry": { "type": "Point", "coordinates": [ -80.307855687715048, 43.125539800373403 ] } },
{ "type": "Feature", "properties": { "cmauid": "550", "cmaname": "Guelph" }, "geometry": { "type": "Point", "coordinates": [ -80.219702252655196, 43.543982866848594 ] } },
{ "type": "Feature", "properties": { "cmauid": "555", "cmaname": "London" }, "geometry": { "type": "Point", "coordinates": [ -81.329384832469316, 42.933300484970218 ] } },
{ "type": "Feature", "properties": { "cmauid": "559", "cmaname": "Windsor" }, "geometry": { "type": "Point", "coordinates": [ -82.781313678592298, 42.163154607486 ] } },
{ "type": "Feature", "properties": { "cmauid": "562", "cmaname": "Sarnia" }, "geometry": { "type": "Point", "coordinates": [ -82.281461468989065, 42.870922782335519 ] } },
{ "type": "Feature", "properties": { "cmauid": "568", "cmaname": "Barrie" }, "geometry": { "type": "Point", "coordinates": [ -79.738692247521612, 44.407338258854189 ] } },
{ "type": "Feature", "properties": { "cmauid": "580", "cmaname": "Greater Sudbury" }, "geometry": { "type": "Point", "coordinates": [ -80.946783496687289, 46.549261570685964 ] } },
{ "type": "Feature", "properties": { "cmauid": "595", "cmaname": "Thunder Bay" }, "geometry": { "type": "Point", "coordinates": [ -89.349223824552553, 48.368866007102518 ] } },
{ "type": "Feature", "properties": { "cmauid": "602", "cmaname": "Winnipeg" }, "geometry": { "type": "Point", "coordinates": [ -97.048146173078166, 49.887389953406796 ] } },
{ "type": "Feature", "properties": { "cmauid": "705", "cmaname": "Regina" }, "geometry": { "type": "Point", "coordinates": [ -104.620944633774954, 50.449303646634149 ] } },
{ "type": "Feature", "properties": { "cmauid": "725", "cmaname": "Saskatoon" }, "geometry": { "type": "Point", "coordinates": [ -106.565072327506059, 52.097665638725807 ] } },
{ "type": "Feature", "properties": { "cmauid": "810", "cmaname": "Lethbridge" }, "geometry": { "type": "Point", "coordinates": [ -112.767731620014544, 49.843745837674888 ] } },
{ "type": "Feature", "properties": { "cmauid": "825", "cmaname": "Calgary" }, "geometry": { "type": "Point", "coordinates": [ -114.07812569794703, 51.180779445528678 ] } },
{ "type": "Feature", "properties": { "cmauid": "830", "cmaname": "Red Deer" }, "geometry": { "type": "Point", "coordinates": [ -113.797353545565812, 52.281596901579576 ] } },
{ "type": "Feature", "properties": { "cmauid": "835", "cmaname": "Edmonton" }, "geometry": { "type": "Point", "coordinates": [ -113.788467523429418, 53.513193282648281 ] } },
{ "type": "Feature", "properties": { "cmauid": "915", "cmaname": "Kelowna" }, "geometry": { "type": "Point", "coordinates": [ -119.458053610764068, 49.948926691450687 ] } },
{ "type": "Feature", "properties": { "cmauid": "925", "cmaname": "Kamloops" }, "geometry": { "type": "Point", "coordinates": [ -120.510734871392216, 50.801777433479671 ] } },
{ "type": "Feature", "properties": { "cmauid": "930", "cmaname": "Chilliwack" }, "geometry": { "type": "Point", "coordinates": [ -121.723060126965606, 49.137768961197089 ] } },
{ "type": "Feature", "properties": { "cmauid": "932", "cmaname": "Abbotsford-Mission" }, "geometry": { "type": "Point", "coordinates": [ -122.308345107208964, 49.134995771747718 ] } },
{ "type": "Feature", "properties": { "cmauid": "933", "cmaname": "Vancouver" }, "geometry": { "type": "Point", "coordinates": [ -122.836066308910574, 49.282715222836629 ] } },
{ "type": "Feature", "properties": { "cmauid": "935", "cmaname": "Victoria" }, "geometry": { "type": "Point", "coordinates": [ -123.550732436521471, 48.465416181676268 ] } },
{ "type": "Feature", "properties": { "cmauid": "938", "cmaname": "Nanaimo" }, "geometry": { "type": "Point", "coordinates": [ -124.234805358043928, 49.127896439943896 ] } },
{ "type": "Feature", "properties": { "cmauid": "970", "cmaname": "Prince George" }, "geometry": { "type": "Point", "coordinates": [ -121.930273312949808, 53.923366778899158 ] } }
]
}
